nom;type;adresse;ville;departement;region;activite;detention;effectif;ca;statut;lat;lng;verified;note
Nutréa — Plouagat (nutrition animale);Nutrition Animale;Zone industrielle - 22170 Plouagat;Plouagat;Côtes-d'Armor (22);Bretagne;Fabrication d'aliments pour animaux. Filiale 100% Eureden depuis jan. 2024 (reprise des parts Terrena). Dessert éleveurs du marché libre.;100% — Filiale Eureden (depuis jan. 2024);NC;NC;entite;48.5310;-2.9840;false;Site confirmé dans répartition Eureden/Terrena (jan. 2024)
Nutréa — Plouisy (nutrition animale);Nutrition Animale;Zone industrielle - 22200 Plouisy;Plouisy;Côtes-d'Armor (22);Bretagne;Fabrication d'aliments pour animaux. Filiale 100% Eureden depuis jan. 2024.;100% — Filiale Eureden (depuis jan. 2024);NC;NC;entite;48.5600;-3.2000;false;Site confirmé dans répartition Eureden/Terrena (jan. 2024)
Nutréa — Carhaix-Plouguer (nutrition animale);Nutrition Animale;Zone industrielle - 29270 Carhaix-Plouguer;Carhaix-Plouguer;Finistère (29);Bretagne;Fabrication d'aliments pour animaux. Filiale 100% Eureden depuis jan. 2024.;100% — Filiale Eureden (depuis jan. 2024);NC;NC;entite;48.2740;-3.5690;false;Site confirmé dans répartition Eureden/Terrena (jan. 2024)
Nutréa — Cléden-Poher (nutrition animale);Nutrition Animale;29270 Cléden-Poher;Cléden-Poher;Finistère (29);Bretagne;Fabrication d'aliments pour animaux. Filiale 100% Eureden depuis jan. 2024. Site distinct de Carhaix.;100% — Filiale Eureden (depuis jan. 2024);NC;NC;entite;48.2500;-3.5200;false;Mentionné explicitement comme site distinct dans communiqués Eureden/Terrena
Le Récolteur — Ploemeur (épicerie terroir);Distribution;54 Rue du Général de Gaulle - 56270 Ploemeur;Plœmeur;Morbihan (56);Bretagne;Enseigne d'épicerie-terroir breton. 1er magasin de l'enseigne ouvert à Ploemeur.;100% — Enseigne Distribution Eureden;NC;NC;entite;47.7330;-3.4330;false;Annoncé comme 1er ouverture de l'enseigne Le Récolteur sur Eureden.com
Le Récolteur — Auray (épicerie terroir);Distribution;Rue du Loc'h - 56400 Auray;Auray;Morbihan (56);Bretagne;Enseigne d'épicerie-terroir breton. 2e ouverture de l'enseigne.;100% — Enseigne Distribution Eureden;NC;NC;entite;47.6660;-2.9880;false;Ouverture annoncée sur Eureden.com. Adresse approximative.
E&G Sales Co (JV Eureden Œuf / Griffiths);Œuf;Shropshire - Angleterre (hors France);Shropshire;— (Royaume-Uni);Royaume-Uni;Co-entreprise commerciale ovoproduits pour le marché britannique. Détention 50/50 Eureden Oeuf et Griffiths Family Foods. Opérationnelle depuis oct. 2025.;50% — JV Eureden Oeuf / Griffiths Family Foods (50/50);NC;NC;participation;52.6800;-2.4450;true;Hors périmètre carte France. À intégrer si extension carte internationale. Source : Eureden.com + Processalimentaire (mai 2025)